[{"id":"1508273383372","name":"Bean","lat":"           41.88290173588128","lon":"           -87.62197494506837","iconUrl":"imgs\/kiosks\/1508273383372.png","iconSize":[200,200],"mapCenterLat":"41.890361844261186","mapCenterLon":"-87.61746740310628","mapZoom":"14"},{"id":"1508339813309","name":"Art Institute","lat":"  41.879147390418765","lon":"  -87.62223529876793","iconUrl":"imgs\/kiosks\/1508339813309.png","iconSize":[200,200],"mapCenterLat":"41.88828524205805","mapCenterLon":"-87.6280689239502","mapZoom":"13"},{"id":"1508340020457","name":"360 Now","lat":" 41.90610987558263","lon":" -87.62944507659996","iconUrl":"imgs\/kiosks\/1508340020457.png","iconSize":[200,200],"mapCenterLat":"41.883435","mapCenterLon":"-87.623354","mapZoom":"14"},{"id":"1508340045910","name":"Navy Pier","lat":" 41.89441901069061","lon":" -87.60429668487633","iconUrl":"imgs\/kiosks\/1508340045910.png","iconSize":[200,200],"mapCenterLat":"41.883435","mapCenterLon":"-87.623354","mapZoom":"14"},{"id":"1508340062754","name":"Willis Tower","lat":" 41.877613636897365","lon":" -87.64274883331383","iconUrl":"imgs\/kiosks\/1508340062754.png","iconSize":[200,200],"mapCenterLat":"41.883435","mapCenterLon":"-87.623354","mapZoom":"14"},{"id":"1508340087364","name":"Riverwalk","lat":" 41.88802965558304","lon":" -87.63184833587731","iconUrl":"imgs\/kiosks\/1508340087364.png","iconSize":[200,200],"mapCenterLat":"41.883435","mapCenterLon":"-87.623354","mapZoom":"14"},{"id":"1508340140869","name":"Shedd Aquarium","lat":" 41.867068084980424","lon":" -87.61382389129723","iconUrl":"imgs\/kiosks\/1508340140869.png","iconSize":[200,200],"mapCenterLat":"41.883435","mapCenterLon":"-87.623354","mapZoom":"14"}]